[
  {
    "id": "zone-11a---salah-al-din-al-ayyubi---01",
    "name": "Zone 11A - Salah Al Din Al Ayyubi - 01",
    "street": "Salah Al Din Al Ayyubi",
    "lat": 24.695,
    "lng": 46.718,
    "radius": 250,
    "freeFrom": "00:00",
    "freeTo": "08:00",
    "paidFrom": "08:00",
    "paidTo": "00:00",
    "pricePerHour": 3.45,
    "currency": "SAR"
  },
  {
    "id": "zone-11a---king-abdulaziz---02",
    "name": "Zone 11A - King Abdulaziz - 02",
    "street": "King Abdulaziz",
    "lat": 24.6877,
    "lng": 46.7219,
    "radius": 250,
    "freeFrom": "00:00",
    "freeTo": "08:00",
    "paidFrom": "08:00",
    "paidTo": "00:00",
    "pricePerHour": 3.45,
    "currency": "SAR"
  },
  {
    "id": "zone-11a---king-abdulaziz---03",
    "name": "Zone 11A - King Abdulaziz - 03",
    "street": "King Abdulaziz",
    "lat": 24.6882,
    "lng": 46.7224,
    "radius": 250,
    "freeFrom": "00:00",
    "freeTo": "08:00",
    "paidFrom": "08:00",
    "paidTo": "00:00",
    "pricePerHour": 3.45,
    "currency": "SAR"
  },
  {
    "id": "zone-11a---prince-mohamed-bin-abdulaziz---01",
    "name": "Zone 11A - Prince Mohamed bin Abdulaziz - 01",
    "street": "Prince Mohamed bin Abdulaziz",
    "lat": 24.7021,
    "lng": 46.6742,
    "radius": 250,
    "freeFrom": "00:00",
    "freeTo": "08:00",
    "paidFrom": "08:00",
    "paidTo": "00:00",
    "pricePerHour": 3.45,
    "currency": "SAR"
  },
  {
    "id": "zone-11a---king-abdulaziz---01",
    "name": "Zone 11A - King Abdulaziz - 01",
    "street": "King Abdulaziz",
    "lat": 24.6887,
    "lng": 46.7229,
    "radius": 250,
    "freeFrom": "00:00",
    "freeTo": "08:00",
    "paidFrom": "08:00",
    "paidTo": "00:00",
    "pricePerHour": 3.45,
    "currency": "SAR"
  },
  {
    "id": "zone-005---al-dabab-street---01",
    "name": "Zone 005 - Al Dabab Street - 01",
    "street": "Al Dabab Street",
    "lat": 24.688,
    "lng": 46.715,
    "radius": 250,
    "freeFrom": "00:00",
    "freeTo": "08:00",
    "paidFrom": "08:00",
    "paidTo": "00:00",
    "pricePerHour": 3.45,
    "currency": "SAR"
  },
  {
    "id": "zone-11a---al-dabab-street---01",
    "name": "Zone 11A - Al Dabab Street - 01",
    "street": "Al Dabab Street",
    "lat": 24.6885,
    "lng": 46.7155,
    "radius": 250,
    "freeFrom": "00:00",
    "freeTo": "08:00",
    "paidFrom": "08:00",
    "paidTo": "00:00",
    "pricePerHour": 3.45,
    "currency": "SAR"
  },
  {
    "id": "zone-11a---makka-el-mokarama---01",
    "name": "Zone 11A - Makka El Mokarama - 01",
    "street": "Makka El Mokarama",
    "lat": 24.67,
    "lng": 46.71,
    "radius": 250,
    "freeFrom": "00:00",
    "freeTo": "08:00",
    "paidFrom": "08:00",
    "paidTo": "00:00",
    "pricePerHour": 3.45,
    "currency": "SAR"
  },
  {
    "id": "zone-17b--abdulrahman-al-ghafeqi-road---02",
    "name": "Zone 17B- Abdulrahman Al Ghafeqi Road - 02",
    "street": "Abdulrahman Al Ghafeqi Road",
    "lat": 24.77,
    "lng": 46.6501,
    "radius": 250,
    "freeFrom": "00:00",
    "freeTo": "08:00",
    "paidFrom": "08:00",
    "paidTo": "00:00",
    "pricePerHour": 3.45,
    "currency": "SAR"
  },
  {
    "id": "zone-17b--abdulrahman-al-ghafeqi-road---01",
    "name": "Zone 17B- Abdulrahman Al Ghafeqi Road - 01",
    "street": "Abdulrahman Al Ghafeqi Road",
    "lat": 24.77,
    "lng": 46.65,
    "radius": 250,
    "freeFrom": "00:00",
    "freeTo": "08:00",
    "paidFrom": "08:00",
    "paidTo": "00:00",
    "pricePerHour": 3.45,
    "currency": "SAR"
  },
  {
    "id": "zone-005---prince-mohamed-bin-abdulaziz-street---01",
    "name": "Zone 005 - Prince Mohamed bin Abdulaziz Street - 01",
    "street": "Prince Mohamed bin Abdulaziz Street",
    "lat": 24.7021,
    "lng": 46.6742,
    "radius": 250,
    "freeFrom": "00:00",
    "freeTo": "08:00",
    "paidFrom": "08:00",
    "paidTo": "00:00",
    "pricePerHour": 3.45,
    "currency": "SAR"
  },
  {
    "id": "zone-17b---eastern-ring-road---01",
    "name": "Zone 17B - Eastern Ring Road - 01",
    "street": "Eastern Ring Road",
    "lat": 24.75,
    "lng": 46.78,
    "radius": 250,
    "freeFrom": "00:00",
    "freeTo": "08:00",
    "paidFrom": "08:00",
    "paidTo": "00:00",
    "pricePerHour": 3.45,
    "currency": "SAR"
  },
  {
    "id": "zone-17a---othman-bin-affan-road---02",
    "name": "Zone 17A - Othman Bin Affan road - 02",
    "street": "Othman Bin Affan road",
    "lat": 24.76,
    "lng": 46.69,
    "radius": 250,
    "freeFrom": "00:00",
    "freeTo": "08:00",
    "paidFrom": "08:00",
    "paidTo": "00:00",
    "pricePerHour": 3.45,
    "currency": "SAR"
  },
  {
    "id": "zone-17a---othman-bin-affan-road---01",
    "name": "Zone 17A - Othman Bin Affan road - 01",
    "street": "Othman Bin Affan road",
    "lat": 24.7605,
    "lng": 46.6905,
    "radius": 250,
    "freeFrom": "00:00",
    "freeTo": "08:00",
    "paidFrom": "08:00",
    "paidTo": "00:00",
    "pricePerHour": 3.45,
    "currency": "SAR"
  },
  {
    "id": "zone-004---prince-mohamed-bin-abdulaziz-street---01",
    "name": "Zone 004 - Prince Mohamed bin Abdulaziz Street - 01",
    "street": "Prince Mohamed bin Abdulaziz Street",
    "lat": 24.7026,
    "lng": 46.6747,
    "radius": 250,
    "freeFrom": "00:00",
    "freeTo": "08:00",
    "paidFrom": "08:00",
    "paidTo": "00:00",
    "pricePerHour": 3.45,
    "currency": "SAR"
  },
  {
    "id": "zone-11a---prince-mamduh-bin-abdulaziz---02",
    "name": "Zone 11A - Prince Mamduh bin Abdulaziz - 02",
    "street": "Prince Mamduh bin Abdulaziz",
    "lat": 24.715,
    "lng": 46.668,
    "radius": 250,
    "freeFrom": "00:00",
    "freeTo": "08:00",
    "paidFrom": "08:00",
    "paidTo": "00:00",
    "pricePerHour": 3.45,
    "currency": "SAR"
  },
  {
    "id": "zone-11a---prince-mamduh-bin-abdulaziz---01",
    "name": "Zone 11A - Prince Mamduh bin Abdulaziz - 01",
    "street": "Prince Mamduh bin Abdulaziz",
    "lat": 24.7155,
    "lng": 46.6685,
    "radius": 250,
    "freeFrom": "00:00",
    "freeTo": "08:00",
    "paidFrom": "08:00",
    "paidTo": "00:00",
    "pricePerHour": 3.45,
    "currency": "SAR"
  },
  {
    "id": "zone-005---prince-sultan-bin-abdulaziz---02",
    "name": "Zone 005 - Prince Sultan bin Abdulaziz - 02",
    "street": "Prince Sultan bin Abdulaziz",
    "lat": 24.685,
    "lng": 46.705,
    "radius": 250,
    "freeFrom": "00:00",
    "freeTo": "08:00",
    "paidFrom": "08:00",
    "paidTo": "00:00",
    "pricePerHour": 3.45,
    "currency": "SAR"
  },
  {
    "id": "zone-005---prince-sultan-bin-abdulaziz---01",
    "name": "Zone 005 - Prince Sultan bin Abdulaziz - 01",
    "street": "Prince Sultan bin Abdulaziz",
    "lat": 24.6855,
    "lng": 46.7055,
    "radius": 250,
    "freeFrom": "00:00",
    "freeTo": "08:00",
    "paidFrom": "08:00",
    "paidTo": "00:00",
    "pricePerHour": 3.45,
    "currency": "SAR"
  },
  {
    "id": "zone-004---abdullah-bin-suliman-al-hamdan-street---01",
    "name": "Zone 004 - Abdullah bin Suliman Al Hamdan Street - 01",
    "street": "Abdullah bin Suliman Al Hamdan Street",
    "lat": 24.705,
    "lng": 46.665,
    "radius": 250,
    "freeFrom": "00:00",
    "freeTo": "08:00",
    "paidFrom": "08:00",
    "paidTo": "00:00",
    "pricePerHour": 3.45,
    "currency": "SAR"
  },
  {
    "id": "zone-17a---king-abdullah-rd---03",
    "name": "Zone 17A - King Abdullah Rd - 03",
    "street": "King Abdullah Rd",
    "lat": 24.75,
    "lng": 46.62,
    "radius": 250,
    "freeFrom": "00:00",
    "freeTo": "08:00",
    "paidFrom": "08:00",
    "paidTo": "00:00",
    "pricePerHour": 3.45,
    "currency": "SAR"
  },
  {
    "id": "zone-004---abdullah-bin-suliman-al-hamdan-street---02",
    "name": "Zone 004 - Abdullah bin Suliman Al Hamdan Street - 02",
    "street": "Abdullah bin Suliman Al Hamdan Street",
    "lat": 24.7055,
    "lng": 46.6655,
    "radius": 250,
    "freeFrom": "00:00",
    "freeTo": "08:00",
    "paidFrom": "08:00",
    "paidTo": "00:00",
    "pricePerHour": 3.45,
    "currency": "SAR"
  },
  {
    "id": "zone-11a---abdullah-bin-suliman-al-hamdan---01",
    "name": "Zone 11A - Abdullah bin Suliman Al Hamdan - 01",
    "street": "Abdullah bin Suliman Al Hamdan",
    "lat": 24.705,
    "lng": 46.665,
    "radius": 250,
    "freeFrom": "00:00",
    "freeTo": "08:00",
    "paidFrom": "08:00",
    "paidTo": "00:00",
    "pricePerHour": 3.45,
    "currency": "SAR"
  },
  {
    "id": "zone-14f---king-abdullah-rd---01",
    "name": "Zone 14F - King Abdullah Rd - 01",
    "street": "King Abdullah Rd",
    "lat": 24.7505,
    "lng": 46.6205,
    "radius": 250,
    "freeFrom": "00:00",
    "freeTo": "08:00",
    "paidFrom": "08:00",
    "paidTo": "00:00",
    "pricePerHour": 3.45,
    "currency": "SAR"
  },
  {
    "id": "zone-14e---king-abdullah---01",
    "name": "Zone 14E - King Abdullah - 01",
    "street": "King Abdullah",
    "lat": 24.75,
    "lng": 46.62,
    "radius": 250,
    "freeFrom": "00:00",
    "freeTo": "08:00",
    "paidFrom": "08:00",
    "paidTo": "00:00",
    "pricePerHour": 3.45,
    "currency": "SAR"
  },
  {
    "id": "zone-17a---king-abdullah---02",
    "name": "Zone 17A - King Abdullah - 02",
    "street": "King Abdullah",
    "lat": 24.7505,
    "lng": 46.6205,
    "radius": 250,
    "freeFrom": "00:00",
    "freeTo": "08:00",
    "paidFrom": "08:00",
    "paidTo": "00:00",
    "pricePerHour": 3.45,
    "currency": "SAR"
  },
  {
    "id": "zone-004---prince-mamduh-bin-abdulaziz---02",
    "name": "Zone 004 - Prince Mamduh bin Abdulaziz - 02",
    "street": "Prince Mamduh bin Abdulaziz",
    "lat": 24.716,
    "lng": 46.669,
    "radius": 250,
    "freeFrom": "00:00",
    "freeTo": "08:00",
    "paidFrom": "08:00",
    "paidTo": "00:00",
    "pricePerHour": 3.45,
    "currency": "SAR"
  },
  {
    "id": "zone-004---prince-mamduh-bin-abdulaziz---01",
    "name": "Zone 004 - Prince Mamduh bin Abdulaziz - 01",
    "street": "Prince Mamduh bin Abdulaziz",
    "lat": 24.7165,
    "lng": 46.6695,
    "radius": 250,
    "freeFrom": "00:00",
    "freeTo": "08:00",
    "paidFrom": "08:00",
    "paidTo": "00:00",
    "pricePerHour": 3.45,
    "currency": "SAR"
  },
  {
    "id": "zone-003---al-uroba-st---01",
    "name": "Zone 003 - Al Uroba St - 01",
    "street": "Al Uroba St",
    "lat": 24.7271,
    "lng": 46.6603,
    "radius": 250,
    "freeFrom": "00:00",
    "freeTo": "08:00",
    "paidFrom": "08:00",
    "paidTo": "00:00",
    "pricePerHour": 3.45,
    "currency": "SAR"
  },
  {
    "id": "zone-005---prince-mohamed-bin-abdulaziz-street---02",
    "name": "Zone 005 - Prince Mohamed bin Abdulaziz Street - 02",
    "street": "Prince Mohamed bin Abdulaziz Street",
    "lat": 24.7031,
    "lng": 46.6752,
    "radius": 250,
    "freeFrom": "00:00",
    "freeTo": "08:00",
    "paidFrom": "08:00",
    "paidTo": "00:00",
    "pricePerHour": 3.45,
    "currency": "SAR"
  },
  {
    "id": "zone-004---prince-mohamed-bin-abdulaziz-street---02",
    "name": "Zone 004 - Prince Mohamed bin Abdulaziz Street - 02",
    "street": "Prince Mohamed bin Abdulaziz Street",
    "lat": 24.7036,
    "lng": 46.6757,
    "radius": 250,
    "freeFrom": "00:00",
    "freeTo": "08:00",
    "paidFrom": "08:00",
    "paidTo": "00:00",
    "pricePerHour": 3.45,
    "currency": "SAR"
  },
  {
    "id": "zone-005---makka-el-mokarama---01",
    "name": "Zone 005 - Makka El Mokarama - 01",
    "street": "Makka El Mokarama",
    "lat": 24.6705,
    "lng": 46.7105,
    "radius": 250,
    "freeFrom": "00:00",
    "freeTo": "08:00",
    "paidFrom": "08:00",
    "paidTo": "00:00",
    "pricePerHour": 3.45,
    "currency": "SAR"
  },
  {
    "id": "zone-11a---al-uroba-road---01",
    "name": "Zone 11A - Al Uroba Road - 01",
    "street": "Al Uroba Road",
    "lat": 24.7271,
    "lng": 46.6603,
    "radius": 250,
    "freeFrom": "00:00",
    "freeTo": "08:00",
    "paidFrom": "08:00",
    "paidTo": "00:00",
    "pricePerHour": 3.45,
    "currency": "SAR"
  },
  {
    "id": "zone-004---sheikh-abdulaziz-al-sheikh---02",
    "name": "Zone 004 - Sheikh Abdulaziz Al-Sheikh - 02",
    "street": "Sheikh Abdulaziz Al-Sheikh",
    "lat": 24.71,
    "lng": 46.67,
    "radius": 250,
    "freeFrom": "00:00",
    "freeTo": "08:00",
    "paidFrom": "08:00",
    "paidTo": "00:00",
    "pricePerHour": 3.45,
    "currency": "SAR"
  },
  {
    "id": "zone-003---king-abdulaziz-st---01",
    "name": "Zone 003 - King Abdulaziz St - 01",
    "street": "King Abdulaziz St",
    "lat": 24.6877,
    "lng": 46.7219,
    "radius": 250,
    "freeFrom": "00:00",
    "freeTo": "08:00",
    "paidFrom": "08:00",
    "paidTo": "00:00",
    "pricePerHour": 3.45,
    "currency": "SAR"
  },
  {
    "id": "zone-005---al-ulaya---01",
    "name": "Zone 005 - Al Ulaya - 01",
    "street": "Al Ulaya",
    "lat": 24.698,
    "lng": 46.683,
    "radius": 250,
    "freeFrom": "00:00",
    "freeTo": "08:00",
    "paidFrom": "08:00",
    "paidTo": "00:00",
    "pricePerHour": 3.45,
    "currency": "SAR"
  },
  {
    "id": "zone-003---al-uroba-st---02",
    "name": "Zone 003 - Al Uroba St - 02",
    "street": "Al Uroba St",
    "lat": 24.7276,
    "lng": 46.6608,
    "radius": 250,
    "freeFrom": "00:00",
    "freeTo": "08:00",
    "paidFrom": "08:00",
    "paidTo": "00:00",
    "pricePerHour": 3.45,
    "currency": "SAR"
  },
  {
    "id": "zone-17b---king-abdullah-rd---01",
    "name": "Zone 17B - King Abdullah Rd - 01",
    "street": "King Abdullah Rd",
    "lat": 24.751,
    "lng": 46.621,
    "radius": 250,
    "freeFrom": "00:00",
    "freeTo": "08:00",
    "paidFrom": "08:00",
    "paidTo": "00:00",
    "pricePerHour": 3.45,
    "currency": "SAR"
  },
  {
    "id": "zone-004---sheikh-abdulaziz-al-sheikh---01",
    "name": "Zone 004 - Sheikh Abdulaziz Al-Sheikh - 01",
    "street": "Sheikh Abdulaziz Al-Sheikh",
    "lat": 24.7105,
    "lng": 46.6705,
    "radius": 250,
    "freeFrom": "00:00",
    "freeTo": "08:00",
    "paidFrom": "08:00",
    "paidTo": "00:00",
    "pricePerHour": 3.45,
    "currency": "SAR"
  },
  {
    "id": "zone-14d---king-abdullah---01",
    "name": "Zone 14D - King Abdullah - 01",
    "street": "King Abdullah",
    "lat": 24.751,
    "lng": 46.621,
    "radius": 250,
    "freeFrom": "00:00",
    "freeTo": "08:00",
    "paidFrom": "08:00",
    "paidTo": "00:00",
    "pricePerHour": 3.45,
    "currency": "SAR"
  },
  {
    "id": "zone-15c---king-abdullah-rd---02",
    "name": "Zone 15C - King Abdullah Rd - 02",
    "street": "King Abdullah Rd",
    "lat": 24.7515,
    "lng": 46.6215,
    "radius": 250,
    "freeFrom": "00:00",
    "freeTo": "08:00",
    "paidFrom": "08:00",
    "paidTo": "00:00",
    "pricePerHour": 3.45,
    "currency": "SAR"
  },
  {
    "id": "zone-17a---king-abdullah---01",
    "name": "Zone 17A - King Abdullah - 01",
    "street": "King Abdullah",
    "lat": 24.7515,
    "lng": 46.6215,
    "radius": 250,
    "freeFrom": "00:00",
    "freeTo": "08:00",
    "paidFrom": "08:00",
    "paidTo": "00:00",
    "pricePerHour": 3.45,
    "currency": "SAR"
  },
  {
    "id": "zone-003---abdullah-al-anqary-st---01",
    "name": "Zone 003 - Abdullah Al-Anqary St - 01",
    "street": "Abdullah Al-Anqary St",
    "lat": 24.7,
    "lng": 46.672,
    "radius": 250,
    "freeFrom": "00:00",
    "freeTo": "08:00",
    "paidFrom": "08:00",
    "paidTo": "00:00",
    "pricePerHour": 3.45,
    "currency": "SAR"
  },
  {
    "id": "zone-14e---othman-bin-affan-road---01",
    "name": "Zone 14E - Othman Bin Affan road - 01",
    "street": "Othman Bin Affan road",
    "lat": 24.761,
    "lng": 46.691,
    "radius": 250,
    "freeFrom": "00:00",
    "freeTo": "08:00",
    "paidFrom": "08:00",
    "paidTo": "00:00",
    "pricePerHour": 3.45,
    "currency": "SAR"
  },
  {
    "id": "zone-003---abdullah-al-anqary-st---02",
    "name": "Zone 003 - Abdullah Al-Anqary St - 02",
    "street": "Abdullah Al-Anqary St",
    "lat": 24.7005,
    "lng": 46.6725,
    "radius": 250,
    "freeFrom": "00:00",
    "freeTo": "08:00",
    "paidFrom": "08:00",
    "paidTo": "00:00",
    "pricePerHour": 3.45,
    "currency": "SAR"
  },
  {
    "id": "zone-14f---othman-bin-affan-road---01",
    "name": "Zone 14F - Othman Bin Affan road - 01",
    "street": "Othman Bin Affan road",
    "lat": 24.7615,
    "lng": 46.6915,
    "radius": 250,
    "freeFrom": "00:00",
    "freeTo": "08:00",
    "paidFrom": "08:00",
    "paidTo": "00:00",
    "pricePerHour": 3.45,
    "currency": "SAR"
  },
  {
    "id": "zone-004---al-ulaya---01",
    "name": "Zone 004 - Al Ulaya - 01",
    "street": "Al Ulaya",
    "lat": 24.6985,
    "lng": 46.6835,
    "radius": 250,
    "freeFrom": "00:00",
    "freeTo": "08:00",
    "paidFrom": "08:00",
    "paidTo": "00:00",
    "pricePerHour": 3.45,
    "currency": "SAR"
  },
  {
    "id": "zone-003---engineer-mosaed-al-anqary-st---03",
    "name": "Zone 003 - Engineer Mosaed Al-Anqary St - 03",
    "street": "Engineer Mosaed Al-Anqary St",
    "lat": 24.699,
    "lng": 46.673,
    "radius": 250,
    "freeFrom": "00:00",
    "freeTo": "08:00",
    "paidFrom": "08:00",
    "paidTo": "00:00",
    "pricePerHour": 3.45,
    "currency": "SAR"
  },
  {
    "id": "zone-007---king-fahd---01",
    "name": "Zone 007 - King Fahd - 01",
    "street": "King Fahd",
    "lat": 24.7136,
    "lng": 46.6753,
    "radius": 250,
    "freeFrom": "00:00",
    "freeTo": "08:00",
    "paidFrom": "08:00",
    "paidTo": "00:00",
    "pricePerHour": 3.45,
    "currency": "SAR"
  },
  {
    "id": "zone-004---al-uroba---01",
    "name": "Zone 004 - Al Uroba - 01",
    "street": "Al Uroba",
    "lat": 24.7271,
    "lng": 46.6603,
    "radius": 250,
    "freeFrom": "00:00",
    "freeTo": "08:00",
    "paidFrom": "08:00",
    "paidTo": "00:00",
    "pricePerHour": 3.45,
    "currency": "SAR"
  },
  {
    "id": "zone-003---al-uroba-st---03",
    "name": "Zone 003 - Al Uroba St - 03",
    "street": "Al Uroba St",
    "lat": 24.7281,
    "lng": 46.6613,
    "radius": 250,
    "freeFrom": "00:00",
    "freeTo": "08:00",
    "paidFrom": "08:00",
    "paidTo": "00:00",
    "pricePerHour": 3.45,
    "currency": "SAR"
  },
  {
    "id": "zone-003---engineer-mosaed-al-anqary-st---01",
    "name": "Zone 003 - Engineer Mosaed Al-Anqary St - 01",
    "street": "Engineer Mosaed Al-Anqary St",
    "lat": 24.6995,
    "lng": 46.6735,
    "radius": 250,
    "freeFrom": "00:00",
    "freeTo": "08:00",
    "paidFrom": "08:00",
    "paidTo": "00:00",
    "pricePerHour": 3.45,
    "currency": "SAR"
  },
  {
    "id": "zone-14e---abu-baker-road---01",
    "name": "Zone 14E - Abu Baker Road - 01",
    "street": "Abu Baker Road",
    "lat": 24.765,
    "lng": 46.695,
    "radius": 250,
    "freeFrom": "00:00",
    "freeTo": "08:00",
    "paidFrom": "08:00",
    "paidTo": "00:00",
    "pricePerHour": 3.45,
    "currency": "SAR"
  },
  {
    "id": "zone-003---engineer-mosaed-al-anqary-st---02",
    "name": "Zone 003 - Engineer Mosaed Al-Anqary St - 02",
    "street": "Engineer Mosaed Al-Anqary St",
    "lat": 24.7,
    "lng": 46.674,
    "radius": 250,
    "freeFrom": "00:00",
    "freeTo": "08:00",
    "paidFrom": "08:00",
    "paidTo": "00:00",
    "pricePerHour": 3.45,
    "currency": "SAR"
  },
  {
    "id": "zone-14d---abu-baker-road---01",
    "name": "Zone 14D - Abu Baker Road - 01",
    "street": "Abu Baker Road",
    "lat": 24.7655,
    "lng": 46.6955,
    "radius": 250,
    "freeFrom": "00:00",
    "freeTo": "08:00",
    "paidFrom": "08:00",
    "paidTo": "00:00",
    "pricePerHour": 3.45,
    "currency": "SAR"
  },
  {
    "id": "zone-003---prince-ahmed-bin-abdulaziz-st---02",
    "name": "Zone 003 - Prince Ahmed bin Abdulaziz St - 02",
    "street": "Prince Ahmed bin Abdulaziz St",
    "lat": 24.692,
    "lng": 46.678,
    "radius": 250,
    "freeFrom": "00:00",
    "freeTo": "08:00",
    "paidFrom": "08:00",
    "paidTo": "00:00",
    "pricePerHour": 3.45,
    "currency": "SAR"
  },
  {
    "id": "zone-007---prince-mohamed-bin-abdulaziz---03",
    "name": "Zone 007 - Prince Mohamed Bin Abdulaziz - 03",
    "street": "Prince Mohamed Bin Abdulaziz",
    "lat": 24.7021,
    "lng": 46.6742,
    "radius": 250,
    "freeFrom": "00:00",
    "freeTo": "08:00",
    "paidFrom": "08:00",
    "paidTo": "00:00",
    "pricePerHour": 3.45,
    "currency": "SAR"
  },
  {
    "id": "zone-007---prince-mohamed-bin-abdulaziz---01",
    "name": "Zone 007 - Prince Mohamed Bin Abdulaziz - 01",
    "street": "Prince Mohamed Bin Abdulaziz",
    "lat": 24.7026,
    "lng": 46.6747,
    "radius": 250,
    "freeFrom": "00:00",
    "freeTo": "08:00",
    "paidFrom": "08:00",
    "paidTo": "00:00",
    "pricePerHour": 3.45,
    "currency": "SAR"
  },
  {
    "id": "zone-007---prince-sultan-bin-abdulaziz-road---01",
    "name": "Zone 007 - Prince Sultan Bin Abdulaziz Road - 01",
    "street": "Prince Sultan Bin Abdulaziz Road",
    "lat": 24.685,
    "lng": 46.705,
    "radius": 250,
    "freeFrom": "00:00",
    "freeTo": "08:00",
    "paidFrom": "08:00",
    "paidTo": "00:00",
    "pricePerHour": 3.45,
    "currency": "SAR"
  },
  {
    "id": "zone-007---prince-sultan-bin-abdulaziz-road---02",
    "name": "Zone 007 - Prince Sultan Bin Abdulaziz Road - 02",
    "street": "Prince Sultan Bin Abdulaziz Road",
    "lat": 24.6855,
    "lng": 46.7055,
    "radius": 250,
    "freeFrom": "00:00",
    "freeTo": "08:00",
    "paidFrom": "08:00",
    "paidTo": "00:00",
    "pricePerHour": 3.45,
    "currency": "SAR"
  },
  {
    "id": "zone-003--prince-sultan-bin-salman-st---02",
    "name": "Zone 003 -Prince Sultan bin Salman St - 02",
    "street": "Prince Sultan bin Salman St",
    "lat": 24.7181,
    "lng": 46.6621,
    "radius": 250,
    "freeFrom": "00:00",
    "freeTo": "08:00",
    "paidFrom": "08:00",
    "paidTo": "00:00",
    "pricePerHour": 3.45,
    "currency": "SAR"
  },
  {
    "id": "zone-003---prince-ahmed-bin-abdulaziz-st---01",
    "name": "Zone 003 - Prince Ahmed bin Abdulaziz St - 01",
    "street": "Prince Ahmed bin Abdulaziz St",
    "lat": 24.6925,
    "lng": 46.6785,
    "radius": 250,
    "freeFrom": "00:00",
    "freeTo": "08:00",
    "paidFrom": "08:00",
    "paidTo": "00:00",
    "pricePerHour": 3.45,
    "currency": "SAR"
  },
  {
    "id": "zone-003---prince-sultan-bin-salman-st---01",
    "name": "Zone 003 - Prince Sultan bin Salman St - 01",
    "street": "Prince Sultan bin Salman St",
    "lat": 24.718,
    "lng": 46.662,
    "radius": 250,
    "freeFrom": "00:00",
    "freeTo": "08:00",
    "paidFrom": "08:00",
    "paidTo": "00:00",
    "pricePerHour": 3.45,
    "currency": "SAR"
  },
  {
    "id": "zone-007---sheikh-abdulaziz-al-sheikh---01",
    "name": "Zone 007 - Sheikh Abdulaziz Al-Sheikh - 01",
    "street": "Sheikh Abdulaziz Al-Sheikh",
    "lat": 24.711,
    "lng": 46.671,
    "radius": 250,
    "freeFrom": "00:00",
    "freeTo": "08:00",
    "paidFrom": "08:00",
    "paidTo": "00:00",
    "pricePerHour": 3.45,
    "currency": "SAR"
  },
  {
    "id": "zone-007---makka-al-mokarama---01",
    "name": "Zone 007 - Makka Al Mokarama - 01",
    "street": "Makka Al Mokarama",
    "lat": 24.67,
    "lng": 46.71,
    "radius": 250,
    "freeFrom": "00:00",
    "freeTo": "08:00",
    "paidFrom": "08:00",
    "paidTo": "00:00",
    "pricePerHour": 3.45,
    "currency": "SAR"
  },
  {
    "id": "zone-17b---king-abdullah-rd---02",
    "name": "Zone 17B - King Abdullah Rd - 02",
    "street": "King Abdullah Rd",
    "lat": 24.752,
    "lng": 46.622,
    "radius": 250,
    "freeFrom": "00:00",
    "freeTo": "08:00",
    "paidFrom": "08:00",
    "paidTo": "00:00",
    "pricePerHour": 3.45,
    "currency": "SAR"
  },
  {
    "id": "zone-006---sheikh-abdulaziz-al-sheikh-road---01",
    "name": "Zone 006 - Sheikh Abdulaziz Al-Sheikh Road - 01",
    "street": "Sheikh Abdulaziz Al-Sheikh Road",
    "lat": 24.71,
    "lng": 46.67,
    "radius": 250,
    "freeFrom": "00:00",
    "freeTo": "08:00",
    "paidFrom": "08:00",
    "paidTo": "00:00",
    "pricePerHour": 3.45,
    "currency": "SAR"
  },
  {
    "id": "zone-007---prince-mohamed-bin-abdulaziz---04",
    "name": "Zone 007 - Prince Mohamed Bin Abdulaziz - 04",
    "street": "Prince Mohamed Bin Abdulaziz",
    "lat": 24.7031,
    "lng": 46.6752,
    "radius": 250,
    "freeFrom": "00:00",
    "freeTo": "08:00",
    "paidFrom": "08:00",
    "paidTo": "00:00",
    "pricePerHour": 3.45,
    "currency": "SAR"
  },
  {
    "id": "zone-007---prince-mohamed-bin-abdulaziz---02",
    "name": "Zone 007 - Prince Mohamed Bin Abdulaziz - 02",
    "street": "Prince Mohamed Bin Abdulaziz",
    "lat": 24.7036,
    "lng": 46.6757,
    "radius": 250,
    "freeFrom": "00:00",
    "freeTo": "08:00",
    "paidFrom": "08:00",
    "paidTo": "00:00",
    "pricePerHour": 3.45,
    "currency": "SAR"
  },
  {
    "id": "zone-11b---96-street---01",
    "name": "Zone 11B - 96 Street - 01",
    "street": "96 Street",
    "lat": 24.708,
    "lng": 46.69,
    "radius": 250,
    "freeFrom": "00:00",
    "freeTo": "08:00",
    "paidFrom": "08:00",
    "paidTo": "00:00",
    "pricePerHour": 3.45,
    "currency": "SAR"
  },
  {
    "id": "zone-15c---king-abdullah-rd---01",
    "name": "Zone 15C - King Abdullah Rd - 01",
    "street": "King Abdullah Rd",
    "lat": 24.7525,
    "lng": 46.6225,
    "radius": 250,
    "freeFrom": "00:00",
    "freeTo": "08:00",
    "paidFrom": "08:00",
    "paidTo": "00:00",
    "pricePerHour": 3.45,
    "currency": "SAR"
  },
  {
    "id": "zone-003---prince-sultan-bin-salman-st---03",
    "name": "Zone 003 - Prince Sultan bin Salman St - 03",
    "street": "Prince Sultan bin Salman St",
    "lat": 24.7185,
    "lng": 46.6625,
    "radius": 250,
    "freeFrom": "00:00",
    "freeTo": "08:00",
    "paidFrom": "08:00",
    "paidTo": "00:00",
    "pricePerHour": 3.45,
    "currency": "SAR"
  },
  {
    "id": "zone-002---king-abdullah---01",
    "name": "Zone 002 - King Abdullah - 01",
    "street": "King Abdullah",
    "lat": 24.752,
    "lng": 46.622,
    "radius": 250,
    "freeFrom": "00:00",
    "freeTo": "08:00",
    "paidFrom": "08:00",
    "paidTo": "00:00",
    "pricePerHour": 3.45,
    "currency": "SAR"
  },
  {
    "id": "zone-007---al-takhassusi-road---02",
    "name": "Zone 007 - Al Takhassusi Road - 02",
    "street": "Al Takhassusi Road",
    "lat": 24.705,
    "lng": 46.658,
    "radius": 250,
    "freeFrom": "00:00",
    "freeTo": "08:00",
    "paidFrom": "08:00",
    "paidTo": "00:00",
    "pricePerHour": 3.45,
    "currency": "SAR"
  },
  {
    "id": "zone-007---al-takhassusi-road---04",
    "name": "Zone 007 - Al Takhassusi Road - 04",
    "street": "Al Takhassusi Road",
    "lat": 24.7055,
    "lng": 46.6585,
    "radius": 250,
    "freeFrom": "00:00",
    "freeTo": "08:00",
    "paidFrom": "08:00",
    "paidTo": "00:00",
    "pricePerHour": 3.45,
    "currency": "SAR"
  },
  {
    "id": "zone-006---king-fahd-road---01",
    "name": "Zone 006 - King Fahd Road - 01",
    "street": "King Fahd Road",
    "lat": 24.7136,
    "lng": 46.6753,
    "radius": 250,
    "freeFrom": "00:00",
    "freeTo": "08:00",
    "paidFrom": "08:00",
    "paidTo": "00:00",
    "pricePerHour": 3.45,
    "currency": "SAR"
  },
  {
    "id": "zone-14f---imam-saud-road---01",
    "name": "Zone 14F - Imam Saud Road - 01",
    "street": "Imam Saud Road",
    "lat": 24.72,
    "lng": 46.64,
    "radius": 250,
    "freeFrom": "00:00",
    "freeTo": "08:00",
    "paidFrom": "08:00",
    "paidTo": "00:00",
    "pricePerHour": 3.45,
    "currency": "SAR"
  },
  {
    "id": "zone-11b---al-ulaya-st---01",
    "name": "Zone 11B - Al Ulaya St - 01",
    "street": "Al Ulaya St",
    "lat": 24.698,
    "lng": 46.683,
    "radius": 250,
    "freeFrom": "00:00",
    "freeTo": "08:00",
    "paidFrom": "08:00",
    "paidTo": "00:00",
    "pricePerHour": 3.45,
    "currency": "SAR"
  },
  {
    "id": "zone-14e---imam-saud-road---01",
    "name": "Zone 14E - Imam Saud Road - 01",
    "street": "Imam Saud Road",
    "lat": 24.7205,
    "lng": 46.6405,
    "radius": 250,
    "freeFrom": "00:00",
    "freeTo": "08:00",
    "paidFrom": "08:00",
    "paidTo": "00:00",
    "pricePerHour": 3.45,
    "currency": "SAR"
  },
  {
    "id": "zone-003---king-abdullah-st---01",
    "name": "Zone 003 - King Abdullah St - 01",
    "street": "King Abdullah St",
    "lat": 24.75,
    "lng": 46.62,
    "radius": 250,
    "freeFrom": "00:00",
    "freeTo": "08:00",
    "paidFrom": "08:00",
    "paidTo": "00:00",
    "pricePerHour": 3.45,
    "currency": "SAR"
  },
  {
    "id": "zone-14c---imam-saud-road---01",
    "name": "Zone 14C - Imam Saud Road - 01",
    "street": "Imam Saud Road",
    "lat": 24.721,
    "lng": 46.641,
    "radius": 250,
    "freeFrom": "00:00",
    "freeTo": "08:00",
    "paidFrom": "08:00",
    "paidTo": "00:00",
    "pricePerHour": 3.45,
    "currency": "SAR"
  },
  {
    "id": "zone-3---al-ulaya-st---01",
    "name": "Zone 3 - Al Ulaya St - 01",
    "street": "Al Ulaya St",
    "lat": 24.6985,
    "lng": 46.6835,
    "radius": 250,
    "freeFrom": "00:00",
    "freeTo": "08:00",
    "paidFrom": "08:00",
    "paidTo": "00:00",
    "pricePerHour": 3.45,
    "currency": "SAR"
  },
  {
    "id": "zone-11b---andalus---01",
    "name": "Zone 11B - Andalus - 01",
    "street": "Andalus",
    "lat": 24.72,
    "lng": 46.695,
    "radius": 250,
    "freeFrom": "00:00",
    "freeTo": "08:00",
    "paidFrom": "08:00",
    "paidTo": "00:00",
    "pricePerHour": 3.45,
    "currency": "SAR"
  },
  {
    "id": "zone-007---al-takhassusi-road---03",
    "name": "Zone 007 - Al Takhassusi Road - 03",
    "street": "Al Takhassusi Road",
    "lat": 24.706,
    "lng": 46.659,
    "radius": 250,
    "freeFrom": "00:00",
    "freeTo": "08:00",
    "paidFrom": "08:00",
    "paidTo": "00:00",
    "pricePerHour": 3.45,
    "currency": "SAR"
  },
  {
    "id": "zone-14b--imam-saud-road---01",
    "name": "Zone 14B- Imam Saud Road - 01",
    "street": "Imam Saud Road",
    "lat": 24.7201,
    "lng": 46.6402,
    "radius": 250,
    "freeFrom": "00:00",
    "freeTo": "08:00",
    "paidFrom": "08:00",
    "paidTo": "00:00",
    "pricePerHour": 3.45,
    "currency": "SAR"
  },
  {
    "id": "zone-11b---king-fahd-st---01",
    "name": "Zone 11B - King Fahd St - 01",
    "street": "King Fahd St",
    "lat": 24.7136,
    "lng": 46.6753,
    "radius": 250,
    "freeFrom": "00:00",
    "freeTo": "08:00",
    "paidFrom": "08:00",
    "paidTo": "00:00",
    "pricePerHour": 3.45,
    "currency": "SAR"
  },
  {
    "id": "zone-007---al-takhassusi-road---01",
    "name": "Zone 007 - Al Takhassusi Road - 01",
    "street": "Al Takhassusi Road",
    "lat": 24.7065,
    "lng": 46.6595,
    "radius": 250,
    "freeFrom": "00:00",
    "freeTo": "08:00",
    "paidFrom": "08:00",
    "paidTo": "00:00",
    "pricePerHour": 3.45,
    "currency": "SAR"
  },
  {
    "id": "zone-006---al-uroba-road---02",
    "name": "Zone 006 - Al Uroba Road - 02",
    "street": "Al Uroba Road",
    "lat": 24.7276,
    "lng": 46.6608,
    "radius": 250,
    "freeFrom": "00:00",
    "freeTo": "08:00",
    "paidFrom": "08:00",
    "paidTo": "00:00",
    "pricePerHour": 3.45,
    "currency": "SAR"
  },
  {
    "id": "zone-11b---prince-sultan-bin-salman-st--01",
    "name": "Zone 11B - Prince Sultan bin Salman St- 01",
    "street": "Prince Sultan bin Salman St- 01",
    "lat": 24.718,
    "lng": 46.662,
    "radius": 250,
    "freeFrom": "00:00",
    "freeTo": "08:00",
    "paidFrom": "08:00",
    "paidTo": "00:00",
    "pricePerHour": 3.45,
    "currency": "SAR"
  },
  {
    "id": "zone-006---al-uroba-road---01",
    "name": "Zone 006 - Al Uroba Road - 01",
    "street": "Al Uroba Road",
    "lat": 24.7281,
    "lng": 46.6613,
    "radius": 250,
    "freeFrom": "00:00",
    "freeTo": "08:00",
    "paidFrom": "08:00",
    "paidTo": "00:00",
    "pricePerHour": 3.45,
    "currency": "SAR"
  },
  {
    "id": "zone-006---al-takhassusi-road---04",
    "name": "Zone 006 - Al Takhassusi Road - 04",
    "street": "Al Takhassusi Road",
    "lat": 24.707,
    "lng": 46.66,
    "radius": 250,
    "freeFrom": "00:00",
    "freeTo": "08:00",
    "paidFrom": "08:00",
    "paidTo": "00:00",
    "pricePerHour": 3.45,
    "currency": "SAR"
  },
  {
    "id": "zone-006---al-takhassusi-road---02",
    "name": "Zone 006 - Al Takhassusi Road - 02",
    "street": "Al Takhassusi Road",
    "lat": 24.7075,
    "lng": 46.6605,
    "radius": 250,
    "freeFrom": "00:00",
    "freeTo": "08:00",
    "paidFrom": "08:00",
    "paidTo": "00:00",
    "pricePerHour": 3.45,
    "currency": "SAR"
  },
  {
    "id": "zone-14d---imam-saud-road---01",
    "name": "Zone 14D - Imam Saud Road - 01",
    "street": "Imam Saud Road",
    "lat": 24.7215,
    "lng": 46.6415,
    "radius": 250,
    "freeFrom": "00:00",
    "freeTo": "08:00",
    "paidFrom": "08:00",
    "paidTo": "00:00",
    "pricePerHour": 3.45,
    "currency": "SAR"
  },
  {
    "id": "zone-14a---imam-saud-road---01",
    "name": "Zone 14A - Imam Saud Road - 01",
    "street": "Imam Saud Road",
    "lat": 24.722,
    "lng": 46.642,
    "radius": 250,
    "freeFrom": "00:00",
    "freeTo": "08:00",
    "paidFrom": "08:00",
    "paidTo": "00:00",
    "pricePerHour": 3.45,
    "currency": "SAR"
  },
  {
    "id": "zone-002---king-abdulaziz---01",
    "name": "Zone 002 - King Abdulaziz - 01",
    "street": "King Abdulaziz",
    "lat": 24.6892,
    "lng": 46.7234,
    "radius": 250,
    "freeFrom": "00:00",
    "freeTo": "08:00",
    "paidFrom": "08:00",
    "paidTo": "00:00",
    "pricePerHour": 3.45,
    "currency": "SAR"
  },
  {
    "id": "zone-15a--imam-abdullah-bin-saud---01",
    "name": "Zone 15A- Imam Abdullah bin Saud - 01",
    "street": "Imam Abdullah bin Saud",
    "lat": 24.735,
    "lng": 46.63,
    "radius": 250,
    "freeFrom": "00:00",
    "freeTo": "08:00",
    "paidFrom": "08:00",
    "paidTo": "00:00",
    "pricePerHour": 3.45,
    "currency": "SAR"
  },
  {
    "id": "zone-006---prince-sultan-bin-salman-road---02",
    "name": "Zone 006 - Prince Sultan Bin Salman Road - 02",
    "street": "Prince Sultan Bin Salman Road",
    "lat": 24.718,
    "lng": 46.662,
    "radius": 250,
    "freeFrom": "00:00",
    "freeTo": "08:00",
    "paidFrom": "08:00",
    "paidTo": "00:00",
    "pricePerHour": 3.45,
    "currency": "SAR"
  },
  {
    "id": "zone-006---prince-sultan-bin-salman-road---01",
    "name": "Zone 006 - Prince Sultan Bin Salman Road - 01",
    "street": "Prince Sultan Bin Salman Road",
    "lat": 24.7185,
    "lng": 46.6625,
    "radius": 250,
    "freeFrom": "00:00",
    "freeTo": "08:00",
    "paidFrom": "08:00",
    "paidTo": "00:00",
    "pricePerHour": 3.45,
    "currency": "SAR"
  },
  {
    "id": "zone-11b---king-abdullah-st---01",
    "name": "Zone 11B - King Abdullah St - 01",
    "street": "King Abdullah St",
    "lat": 24.7505,
    "lng": 46.6205,
    "radius": 250,
    "freeFrom": "00:00",
    "freeTo": "08:00",
    "paidFrom": "08:00",
    "paidTo": "00:00",
    "pricePerHour": 3.45,
    "currency": "SAR"
  },
  {
    "id": "zone-14c---othman-bin-affan-road---01",
    "name": "Zone 14C - Othman Bin Affan road - 01",
    "street": "Othman Bin Affan road",
    "lat": 24.762,
    "lng": 46.692,
    "radius": 250,
    "freeFrom": "00:00",
    "freeTo": "08:00",
    "paidFrom": "08:00",
    "paidTo": "00:00",
    "pricePerHour": 3.45,
    "currency": "SAR"
  },
  {
    "id": "zone-14b---othman-bin-affan-road---01",
    "name": "Zone 14B - Othman Bin Affan road - 01",
    "street": "Othman Bin Affan road",
    "lat": 24.7625,
    "lng": 46.6925,
    "radius": 250,
    "freeFrom": "00:00",
    "freeTo": "08:00",
    "paidFrom": "08:00",
    "paidTo": "00:00",
    "pricePerHour": 3.45,
    "currency": "SAR"
  },
  {
    "id": "zone-002---112-street---01",
    "name": "Zone 002 - 112 Street - 01",
    "street": "112 Street",
    "lat": 24.73,
    "lng": 46.65,
    "radius": 250,
    "freeFrom": "00:00",
    "freeTo": "08:00",
    "paidFrom": "08:00",
    "paidTo": "00:00",
    "pricePerHour": 3.45,
    "currency": "SAR"
  },
  {
    "id": "zone-15b--imam-abdullah-bin-saud---02",
    "name": "Zone 15B- Imam Abdullah bin Saud - 02",
    "street": "Imam Abdullah bin Saud",
    "lat": 24.7351,
    "lng": 46.6301,
    "radius": 250,
    "freeFrom": "00:00",
    "freeTo": "08:00",
    "paidFrom": "08:00",
    "paidTo": "00:00",
    "pricePerHour": 3.45,
    "currency": "SAR"
  },
  {
    "id": "zone-006---al-takhassusi-road---01",
    "name": "Zone 006 - Al Takhassusi Road - 01",
    "street": "Al Takhassusi Road",
    "lat": 24.708,
    "lng": 46.661,
    "radius": 250,
    "freeFrom": "00:00",
    "freeTo": "08:00",
    "paidFrom": "08:00",
    "paidTo": "00:00",
    "pricePerHour": 3.45,
    "currency": "SAR"
  },
  {
    "id": "zone-006---king-abdullah-road---01",
    "name": "Zone 006 - King Abdullah Road - 01",
    "street": "King Abdullah Road",
    "lat": 24.75,
    "lng": 46.62,
    "radius": 250,
    "freeFrom": "00:00",
    "freeTo": "08:00",
    "paidFrom": "08:00",
    "paidTo": "00:00",
    "pricePerHour": 3.45,
    "currency": "SAR"
  },
  {
    "id": "zone-14a---abu-baker-rd---01",
    "name": "Zone 14A - Abu Baker Rd - 01",
    "street": "Abu Baker Rd",
    "lat": 24.765,
    "lng": 46.695,
    "radius": 250,
    "freeFrom": "00:00",
    "freeTo": "08:00",
    "paidFrom": "08:00",
    "paidTo": "00:00",
    "pricePerHour": 3.45,
    "currency": "SAR"
  },
  {
    "id": "zone-001---imam-saud-road---01",
    "name": "Zone 001 - Imam Saud Road - 01",
    "street": "Imam Saud Road",
    "lat": 24.7225,
    "lng": 46.6425,
    "radius": 250,
    "freeFrom": "00:00",
    "freeTo": "08:00",
    "paidFrom": "08:00",
    "paidTo": "00:00",
    "pricePerHour": 3.45,
    "currency": "SAR"
  },
  {
    "id": "zone-14b---abu-baker-rd---01",
    "name": "Zone 14B - Abu Baker Rd - 01",
    "street": "Abu Baker Rd",
    "lat": 24.7655,
    "lng": 46.6955,
    "radius": 250,
    "freeFrom": "00:00",
    "freeTo": "08:00",
    "paidFrom": "08:00",
    "paidTo": "00:00",
    "pricePerHour": 3.45,
    "currency": "SAR"
  },
  {
    "id": "zone-006---al-takhassusi-road---03",
    "name": "Zone 006 - Al Takhassusi Road - 03",
    "street": "Al Takhassusi Road",
    "lat": 24.7085,
    "lng": 46.6615,
    "radius": 250,
    "freeFrom": "00:00",
    "freeTo": "08:00",
    "paidFrom": "08:00",
    "paidTo": "00:00",
    "pricePerHour": 3.45,
    "currency": "SAR"
  },
  {
    "id": "zone-002---al-ulaya---01",
    "name": "Zone 002 - Al Ulaya - 01",
    "street": "Al Ulaya",
    "lat": 24.699,
    "lng": 46.684,
    "radius": 250,
    "freeFrom": "00:00",
    "freeTo": "08:00",
    "paidFrom": "08:00",
    "paidTo": "00:00",
    "pricePerHour": 3.45,
    "currency": "SAR"
  },
  {
    "id": "zone-13b---king-abdullah---01",
    "name": "Zone 13B - King Abdullah - 01",
    "street": "King Abdullah",
    "lat": 24.7525,
    "lng": 46.6225,
    "radius": 250,
    "freeFrom": "00:00",
    "freeTo": "08:00",
    "paidFrom": "08:00",
    "paidTo": "00:00",
    "pricePerHour": 3.45,
    "currency": "SAR"
  },
  {
    "id": "zone-002---king-fahd-road---02",
    "name": "Zone 002 - King Fahd Road - 02",
    "street": "King Fahd Road",
    "lat": 24.7141,
    "lng": 46.6758,
    "radius": 250,
    "freeFrom": "00:00",
    "freeTo": "08:00",
    "paidFrom": "08:00",
    "paidTo": "00:00",
    "pricePerHour": 3.45,
    "currency": "SAR"
  },
  {
    "id": "zone-002---al-ulaya---02",
    "name": "Zone 002 - Al Ulaya - 02",
    "street": "Al Ulaya",
    "lat": 24.6995,
    "lng": 46.6845,
    "radius": 250,
    "freeFrom": "00:00",
    "freeTo": "08:00",
    "paidFrom": "08:00",
    "paidTo": "00:00",
    "pricePerHour": 3.45,
    "currency": "SAR"
  },
  {
    "id": "zone-006---king-abdullah-road---02",
    "name": "Zone 006 - King Abdullah Road - 02",
    "street": "King Abdullah Road",
    "lat": 24.7505,
    "lng": 46.6205,
    "radius": 250,
    "freeFrom": "00:00",
    "freeTo": "08:00",
    "paidFrom": "08:00",
    "paidTo": "00:00",
    "pricePerHour": 3.45,
    "currency": "SAR"
  },
  {
    "id": "zone-15b--imam-abdullah-bin-saud---01",
    "name": "Zone 15B- Imam Abdullah bin Saud - 01",
    "street": "Imam Abdullah bin Saud",
    "lat": 24.7352,
    "lng": 46.6302,
    "radius": 250,
    "freeFrom": "00:00",
    "freeTo": "08:00",
    "paidFrom": "08:00",
    "paidTo": "00:00",
    "pricePerHour": 3.45,
    "currency": "SAR"
  },
  {
    "id": "zone-002---imam-saud-road---01",
    "name": "Zone 002 - Imam Saud Road - 01",
    "street": "Imam Saud Road",
    "lat": 24.723,
    "lng": 46.643,
    "radius": 250,
    "freeFrom": "00:00",
    "freeTo": "08:00",
    "paidFrom": "08:00",
    "paidTo": "00:00",
    "pricePerHour": 3.45,
    "currency": "SAR"
  },
  {
    "id": "zone-002---king-fahd-road---01",
    "name": "Zone 002 - King Fahd Road - 01",
    "street": "King Fahd Road",
    "lat": 24.7146,
    "lng": 46.6763,
    "radius": 250,
    "freeFrom": "00:00",
    "freeTo": "08:00",
    "paidFrom": "08:00",
    "paidTo": "00:00",
    "pricePerHour": 3.45,
    "currency": "SAR"
  },
  {
    "id": "zone-001---king-abdulaziz-road---01",
    "name": "Zone 001 - King Abdulaziz Road - 01",
    "street": "King Abdulaziz Road",
    "lat": 24.6877,
    "lng": 46.7219,
    "radius": 250,
    "freeFrom": "00:00",
    "freeTo": "08:00",
    "paidFrom": "08:00",
    "paidTo": "00:00",
    "pricePerHour": 3.45,
    "currency": "SAR"
  },
  {
    "id": "zone-16---om-el-hammam---05",
    "name": "Zone 16 - Om El-Hammam - 05",
    "street": "Om El-Hammam",
    "lat": 24.665,
    "lng": 46.65,
    "radius": 250,
    "freeFrom": "00:00",
    "freeTo": "08:00",
    "paidFrom": "08:00",
    "paidTo": "00:00",
    "pricePerHour": 3.45,
    "currency": "SAR"
  },
  {
    "id": "zone-16---al-uroba-branch-road---01",
    "name": "zone 16 - Al Uroba Branch Road - 01",
    "street": "Al Uroba Branch Road",
    "lat": 24.7271,
    "lng": 46.6603,
    "radius": 250,
    "freeFrom": "00:00",
    "freeTo": "08:00",
    "paidFrom": "08:00",
    "paidTo": "00:00",
    "pricePerHour": 3.45,
    "currency": "SAR"
  },
  {
    "id": "zone-001---imam-saud-road---02",
    "name": "Zone 001 - Imam Saud Road - 02",
    "street": "Imam Saud Road",
    "lat": 24.7235,
    "lng": 46.6435,
    "radius": 250,
    "freeFrom": "00:00",
    "freeTo": "08:00",
    "paidFrom": "08:00",
    "paidTo": "00:00",
    "pricePerHour": 3.45,
    "currency": "SAR"
  },
  {
    "id": "zone-001---ibn-sina---02",
    "name": "Zone 001 - Ibn Sina - 02",
    "street": "Ibn Sina",
    "lat": 24.7,
    "lng": 46.69,
    "radius": 250,
    "freeFrom": "00:00",
    "freeTo": "08:00",
    "paidFrom": "08:00",
    "paidTo": "00:00",
    "pricePerHour": 3.45,
    "currency": "SAR"
  },
  {
    "id": "zone-001---ibn-sina---01",
    "name": "Zone 001 - Ibn Sina - 01",
    "street": "Ibn Sina",
    "lat": 24.7005,
    "lng": 46.6905,
    "radius": 250,
    "freeFrom": "00:00",
    "freeTo": "08:00",
    "paidFrom": "08:00",
    "paidTo": "00:00",
    "pricePerHour": 3.45,
    "currency": "SAR"
  },
  {
    "id": "zone-16---om-el-hammam---04",
    "name": "Zone 16 - Om El-Hammam - 04",
    "street": "Om El-Hammam",
    "lat": 24.6655,
    "lng": 46.6505,
    "radius": 250,
    "freeFrom": "00:00",
    "freeTo": "08:00",
    "paidFrom": "08:00",
    "paidTo": "00:00",
    "pricePerHour": 3.45,
    "currency": "SAR"
  },
  {
    "id": "zone-13b---king-abdullah---02",
    "name": "Zone 13B - King Abdullah - 02",
    "street": "King Abdullah",
    "lat": 24.753,
    "lng": 46.623,
    "radius": 250,
    "freeFrom": "00:00",
    "freeTo": "08:00",
    "paidFrom": "08:00",
    "paidTo": "00:00",
    "pricePerHour": 3.45,
    "currency": "SAR"
  },
  {
    "id": "zone-16---om-el-hammam---03",
    "name": "Zone 16 - Om El-Hammam - 03",
    "street": "Om El-Hammam",
    "lat": 24.666,
    "lng": 46.651,
    "radius": 250,
    "freeFrom": "00:00",
    "freeTo": "08:00",
    "paidFrom": "08:00",
    "paidTo": "00:00",
    "pricePerHour": 3.45,
    "currency": "SAR"
  },
  {
    "id": "zone-16---om-el-hammam---01",
    "name": "Zone 16 - Om El-Hammam - 01",
    "street": "Om El-Hammam",
    "lat": 24.6665,
    "lng": 46.6515,
    "radius": 250,
    "freeFrom": "00:00",
    "freeTo": "08:00",
    "paidFrom": "08:00",
    "paidTo": "00:00",
    "pricePerHour": 3.45,
    "currency": "SAR"
  },
  {
    "id": "zone-16---om-el-hammam---02",
    "name": "Zone 16 - Om El-Hammam - 02",
    "street": "Om El-Hammam",
    "lat": 24.667,
    "lng": 46.652,
    "radius": 250,
    "freeFrom": "00:00",
    "freeTo": "08:00",
    "paidFrom": "08:00",
    "paidTo": "00:00",
    "pricePerHour": 3.45,
    "currency": "SAR"
  },
  {
    "id": "zone-16---king-abdullah---02",
    "name": "Zone 16 - King Abdullah - 02",
    "street": "King Abdullah",
    "lat": 24.7535,
    "lng": 46.6235,
    "radius": 250,
    "freeFrom": "00:00",
    "freeTo": "08:00",
    "paidFrom": "08:00",
    "paidTo": "00:00",
    "pricePerHour": 3.45,
    "currency": "SAR"
  },
  {
    "id": "zone-13b---al-takhassusi---02",
    "name": "Zone 13B - Al Takhassusi - 02",
    "street": "Al Takhassusi",
    "lat": 24.705,
    "lng": 46.658,
    "radius": 250,
    "freeFrom": "00:00",
    "freeTo": "08:00",
    "paidFrom": "08:00",
    "paidTo": "00:00",
    "pricePerHour": 3.45,
    "currency": "SAR"
  },
  {
    "id": "zone-13b---al-takhassusi---01",
    "name": "Zone 13B - Al Takhassusi - 01",
    "street": "Al Takhassusi",
    "lat": 24.7055,
    "lng": 46.6585,
    "radius": 250,
    "freeFrom": "00:00",
    "freeTo": "08:00",
    "paidFrom": "08:00",
    "paidTo": "00:00",
    "pricePerHour": 3.45,
    "currency": "SAR"
  },
  {
    "id": "zone-13a---imam-saud-bin-abdulaziz---01",
    "name": "Zone 13A - Imam Saud bin Abdulaziz - 01",
    "street": "Imam Saud bin Abdulaziz",
    "lat": 24.72,
    "lng": 46.64,
    "radius": 250,
    "freeFrom": "00:00",
    "freeTo": "08:00",
    "paidFrom": "08:00",
    "paidTo": "00:00",
    "pricePerHour": 3.45,
    "currency": "SAR"
  },
  {
    "id": "zone-13b---imam-saud-bin-abdulaziz---02",
    "name": "Zone 13B - Imam Saud bin Abdulaziz - 02",
    "street": "Imam Saud bin Abdulaziz",
    "lat": 24.7205,
    "lng": 46.6405,
    "radius": 250,
    "freeFrom": "00:00",
    "freeTo": "08:00",
    "paidFrom": "08:00",
    "paidTo": "00:00",
    "pricePerHour": 3.45,
    "currency": "SAR"
  },
  {
    "id": "zone-001---al-ulaya---01",
    "name": "Zone 001 - Al Ulaya - 01",
    "street": "Al Ulaya",
    "lat": 24.7,
    "lng": 46.685,
    "radius": 250,
    "freeFrom": "00:00",
    "freeTo": "08:00",
    "paidFrom": "08:00",
    "paidTo": "00:00",
    "pricePerHour": 3.45,
    "currency": "SAR"
  },
  {
    "id": "zone-001---northern-ring-road---01",
    "name": "Zone 001 - Northern Ring Road - 01",
    "street": "Northern Ring Road",
    "lat": 24.78,
    "lng": 46.72,
    "radius": 250,
    "freeFrom": "00:00",
    "freeTo": "08:00",
    "paidFrom": "08:00",
    "paidTo": "00:00",
    "pricePerHour": 3.45,
    "currency": "SAR"
  },
  {
    "id": "zone-001---al-ulaya---02",
    "name": "Zone 001 - Al Ulaya - 02",
    "street": "Al Ulaya",
    "lat": 24.7005,
    "lng": 46.6855,
    "radius": 250,
    "freeFrom": "00:00",
    "freeTo": "08:00",
    "paidFrom": "08:00",
    "paidTo": "00:00",
    "pricePerHour": 3.45,
    "currency": "SAR"
  },
  {
    "id": "zone-16---prince-nawaf-bin-abdulaziz---02",
    "name": "Zone 16 - Prince Nawaf Bin Abdulaziz - 02",
    "street": "Prince Nawaf Bin Abdulaziz",
    "lat": 24.66,
    "lng": 46.64,
    "radius": 250,
    "freeFrom": "00:00",
    "freeTo": "08:00",
    "paidFrom": "08:00",
    "paidTo": "00:00",
    "pricePerHour": 3.45,
    "currency": "SAR"
  },
  {
    "id": "zone-16---prince-nawaf-bin-abdulaziz---01",
    "name": "Zone 16 - Prince Nawaf Bin Abdulaziz - 01",
    "street": "Prince Nawaf Bin Abdulaziz",
    "lat": 24.6605,
    "lng": 46.6405,
    "radius": 250,
    "freeFrom": "00:00",
    "freeTo": "08:00",
    "paidFrom": "08:00",
    "paidTo": "00:00",
    "pricePerHour": 3.45,
    "currency": "SAR"
  },
  {
    "id": "zone-001---king-fahd-road---01",
    "name": "Zone 001 - King Fahd Road - 01",
    "street": "King Fahd Road",
    "lat": 24.7151,
    "lng": 46.6768,
    "radius": 250,
    "freeFrom": "00:00",
    "freeTo": "08:00",
    "paidFrom": "08:00",
    "paidTo": "00:00",
    "pricePerHour": 3.45,
    "currency": "SAR"
  },
  {
    "id": "zone-001---northern-ring-road---02",
    "name": "Zone 001 - Northern Ring Road - 02",
    "street": "Northern Ring Road",
    "lat": 24.7805,
    "lng": 46.7205,
    "radius": 250,
    "freeFrom": "00:00",
    "freeTo": "08:00",
    "paidFrom": "08:00",
    "paidTo": "00:00",
    "pricePerHour": 3.45,
    "currency": "SAR"
  },
  {
    "id": "zone-001---the-area-between-al-ulaya-and-king-fahd---01",
    "name": "Zone 001 - The Area Between Al Ulaya and King Fahd - 01",
    "street": "The Area Between Al Ulaya and King Fahd",
    "lat": 24.698,
    "lng": 46.683,
    "radius": 250,
    "freeFrom": "00:00",
    "freeTo": "08:00",
    "paidFrom": "08:00",
    "paidTo": "00:00",
    "pricePerHour": 3.45,
    "currency": "SAR"
  },
  {
    "id": "zone-001---northern-ring-road---03",
    "name": "Zone 001 - Northern Ring Road - 03",
    "street": "Northern Ring Road",
    "lat": 24.781,
    "lng": 46.721,
    "radius": 250,
    "freeFrom": "00:00",
    "freeTo": "08:00",
    "paidFrom": "08:00",
    "paidTo": "00:00",
    "pricePerHour": 3.45,
    "currency": "SAR"
  },
  {
    "id": "zone-13b---imam-saud-bin-abdulaziz---01",
    "name": "Zone 13B - Imam Saud bin Abdulaziz - 01",
    "street": "Imam Saud bin Abdulaziz",
    "lat": 24.721,
    "lng": 46.641,
    "radius": 250,
    "freeFrom": "00:00",
    "freeTo": "08:00",
    "paidFrom": "08:00",
    "paidTo": "00:00",
    "pricePerHour": 3.45,
    "currency": "SAR"
  },
  {
    "id": "zone-13a---imam-saud-bin-abdulaziz---02",
    "name": "Zone 13A - Imam Saud bin Abdulaziz - 02",
    "street": "Imam Saud bin Abdulaziz",
    "lat": 24.7215,
    "lng": 46.6415,
    "radius": 250,
    "freeFrom": "00:00",
    "freeTo": "08:00",
    "paidFrom": "08:00",
    "paidTo": "00:00",
    "pricePerHour": 3.45,
    "currency": "SAR"
  },
  {
    "id": "zone-13a---al-takhassusi---02",
    "name": "Zone 13A - Al Takhassusi - 02",
    "street": "Al Takhassusi",
    "lat": 24.706,
    "lng": 46.659,
    "radius": 250,
    "freeFrom": "00:00",
    "freeTo": "08:00",
    "paidFrom": "08:00",
    "paidTo": "00:00",
    "pricePerHour": 3.45,
    "currency": "SAR"
  },
  {
    "id": "zone-13a---al-takhassusi---01",
    "name": "Zone 13A - Al Takhassusi - 01",
    "street": "Al Takhassusi",
    "lat": 24.7065,
    "lng": 46.6595,
    "radius": 250,
    "freeFrom": "00:00",
    "freeTo": "08:00",
    "paidFrom": "08:00",
    "paidTo": "00:00",
    "pricePerHour": 3.45,
    "currency": "SAR"
  },
  {
    "id": "zone-16---king-abdullah---01",
    "name": "Zone 16 - King Abdullah - 01",
    "street": "King Abdullah",
    "lat": 24.754,
    "lng": 46.624,
    "radius": 250,
    "freeFrom": "00:00",
    "freeTo": "08:00",
    "paidFrom": "08:00",
    "paidTo": "00:00",
    "pricePerHour": 3.45,
    "currency": "SAR"
  }
]